{
  "lastUpdated": "2026-03-10",
  "source": "Ordenanzas Fiscales Municipales 2026",
  "updateFrequency": "annual",
  "nextUpdate": "2027-01-15",
  "municipalities": {
    "35001": {
      "name": "Agaete",
      "island": "Gran Canaria",
      "ibi_discount_pct": 0,
      "ibi_duration_yrs": 0,
      "icio_discount_pct": 0,
      "lat": 28.10023,
      "lon": -15.69998
    },
    "35002": {
      "name": "Agüimes",
      "island": "Gran Canaria",
      "ibi_discount_pct": 0.20,
      "ibi_duration_yrs": 10,
      "icio_discount_pct": 0.95,
      "lat": 27.9067,
      "lon": -15.4456
    },
    "35005": {
      "name": "Artenara",
      "island": "Gran Canaria",
      "ibi_discount_pct": 0,
      "ibi_duration_yrs": 0,
      "icio_discount_pct": 0,
      "lat": 28.0205,
      "lon": -15.6487
    },
    "35006": {
      "name": "Arucas",
      "island": "Gran Canaria",
      "ibi_discount_pct": 0.25,
      "ibi_duration_yrs": 3,
      "icio_discount_pct": 0.50,
      "lat": 28.1197,
      "lon": -15.5231
    },
    "35008": {
      "name": "Firgas",
      "island": "Gran Canaria",
      "ibi_discount_pct": 0,
      "ibi_duration_yrs": 0,
      "icio_discount_pct": 0,
      "lat": 28.1072,
      "lon": -15.5628
    },
    "35009": {
      "name": "Gáldar",
      "island": "Gran Canaria",
      "ibi_discount_pct": 0,
      "ibi_duration_yrs": 0,
      "icio_discount_pct": 0.50,
      "lat": 28.1467,
      "lon": -15.6500
    },
    "35011": {
      "name": "Ingenio",
      "island": "Gran Canaria",
      "ibi_discount_pct": 0,
      "ibi_duration_yrs": 0,
      "icio_discount_pct": 0,
      "lat": 27.9189,
      "lon": -15.4339
    },
    "35012": {
      "name": "Mogán",
      "island": "Gran Canaria",
      "ibi_discount_pct": 0.15,
      "ibi_duration_yrs": 3,
      "icio_discount_pct": 0.95,
      "lat": 27.8867,
      "lon": -15.7228
    },
    "35013": {
      "name": "Moya",
      "island": "Gran Canaria",
      "ibi_discount_pct": 0,
      "ibi_duration_yrs": 0,
      "icio_discount_pct": 0,
      "lat": 28.1094,
      "lon": -15.5806
    },
    "35016": {
      "name": "Las Palmas de Gran Canaria",
      "island": "Gran Canaria",
      "ibi_discount_pct": 0.50,
      "ibi_duration_yrs": 3,
      "icio_discount_pct": 0.75,
      "lat": 28.0997,
      "lon": -15.4134
    },
    "35019": {
      "name": "San Bartolomé de Tirajana",
      "island": "Gran Canaria",
      "ibi_discount_pct": 0,
      "ibi_duration_yrs": 0,
      "icio_discount_pct": 0.95,
      "lat": 27.9225,
      "lon": -15.5728
    },
    "35020": {
      "name": "La Aldea de San Nicolás",
      "island": "Gran Canaria",
      "ibi_discount_pct": 0,
      "ibi_duration_yrs": 0,
      "icio_discount_pct": 0,
      "lat": 27.9900,
      "lon": -15.7839
    },
    "35021": {
      "name": "Santa Brígida",
      "island": "Gran Canaria",
      "ibi_discount_pct": 0,
      "ibi_duration_yrs": 0,
      "icio_discount_pct": 0,
      "lat": 28.0336,
      "lon": -15.5017
    },
    "35022": {
      "name": "Santa Lucía de Tirajana",
      "island": "Gran Canaria",
      "ibi_discount_pct": 0.50,
      "ibi_duration_yrs": 5,
      "icio_discount_pct": 0,
      "lat": 27.9122,
      "lon": -15.5403
    },
    "35023": {
      "name": "Santa María de Guía",
      "island": "Gran Canaria",
      "ibi_discount_pct": 0,
      "ibi_duration_yrs": 0,
      "icio_discount_pct": 0,
      "lat": 28.1403,
      "lon": -15.6314
    },
    "35025": {
      "name": "Tejeda",
      "island": "Gran Canaria",
      "ibi_discount_pct": 0,
      "ibi_duration_yrs": 0,
      "icio_discount_pct": 0,
      "lat": 27.9964,
      "lon": -15.6128
    },
    "35026": {
      "name": "Telde",
      "island": "Gran Canaria",
      "ibi_discount_pct": 0.50,
      "ibi_duration_yrs": 3,
      "icio_discount_pct": 0.75,
      "lat": 27.9928,
      "lon": -15.4169
    },
    "35027": {
      "name": "Teror",
      "island": "Gran Canaria",
      "ibi_discount_pct": 0,
      "ibi_duration_yrs": 0,
      "icio_discount_pct": 0,
      "lat": 28.0594,
      "lon": -15.5472
    },
    "35031": {
      "name": "Valsequillo",
      "island": "Gran Canaria",
      "ibi_discount_pct": 0,
      "ibi_duration_yrs": 0,
      "icio_discount_pct": 0,
      "lat": 27.9831,
      "lon": -15.4975
    },
    "35032": {
      "name": "Valleseco",
      "island": "Gran Canaria",
      "ibi_discount_pct": 0,
      "ibi_duration_yrs": 0,
      "icio_discount_pct": 0,
      "lat": 28.0531,
      "lon": -15.5778
    },
    "35033": {
      "name": "Vega de San Mateo",
      "island": "Gran Canaria",
      "ibi_discount_pct": 0,
      "ibi_duration_yrs": 0,
      "icio_discount_pct": 0,
      "lat": 28.0094,
      "lon": -15.5331
    },
    "35003": {
      "name": "Antigua",
      "island": "Fuerteventura",
      "ibi_discount_pct": 0.20,
      "ibi_duration_yrs": 3,
      "icio_discount_pct": 0,
      "notes": "Solo residencia habitual",
      "lat": 28.4172,
      "lon": -14.0106
    },
    "35007": {
      "name": "Betancuria",
      "island": "Fuerteventura",
      "ibi_discount_pct": 0,
      "ibi_duration_yrs": 0,
      "icio_discount_pct": 0,
      "lat": 28.4247,
      "lon": -14.0572
    },
    "35014": {
      "name": "La Oliva",
      "island": "Fuerteventura",
      "ibi_discount_pct": 0,
      "ibi_duration_yrs": 0,
      "icio_discount_pct": 0,
      "lat": 28.6103,
      "lon": -13.9267
    },
    "35015": {
      "name": "Pájara",
      "island": "Fuerteventura",
      "ibi_discount_pct": 0,
      "ibi_duration_yrs": 0,
      "icio_discount_pct": 0,
      "lat": 28.3525,
      "lon": -14.1097
    },
    "35017": {
      "name": "Puerto del Rosario",
      "island": "Fuerteventura",
      "ibi_discount_pct": 0.20,
      "ibi_duration_yrs": 4,
      "icio_discount_pct": 0.75,
      "lat": 28.5004,
      "lon": -13.8628
    },
    "35030": {
      "name": "Tuineje",
      "island": "Fuerteventura",
      "ibi_discount_pct": 1.00,
      "ibi_duration_yrs": 6,
      "icio_discount_pct": 0,
      "notes": "Condicionado a valores catastrales bajos",
      "lat": 28.2695,
      "lon": -14.1384
    },
    "_default": {
      "name": "Municipio no registrado",
      "island": "Unknown",
      "ibi_discount_pct": 0,
      "ibi_duration_yrs": 0,
      "icio_discount_pct": 0,
      "lat": 28.1,
      "lon": -15.4
    }
  },
  "postalCodeToINE": {
    "35001": "35016",
    "35002": "35016",
    "35003": "35016",
    "35004": "35016",
    "35005": "35016",
    "35006": "35016",
    "35007": "35016",
    "35008": "35016",
    "35009": "35016",
    "35010": "35016",
    "35011": "35016",
    "35012": "35016",
    "35013": "35016",
    "35014": "35016",
    "35015": "35016",
    "35016": "35016",
    "35017": "35016",
    "35018": "35016",
    "35019": "35016",
    "35100": "35026",
    "35107": "35002",
    "35108": "35002",
    "35109": "35002",
    "35110": "35019",
    "35118": "35022",
    "35119": "35022",
    "35120": "35006",
    "35128": "35008",
    "35129": "35013",
    "35130": "35012",
    "35138": "35012",
    "35139": "35012",
    "35140": "35001",
    "35148": "35009",
    "35149": "35023",
    "35200": "35026",
    "35210": "35026",
    "35211": "35026",
    "35212": "35026",
    "35213": "35031",
    "35214": "35021",
    "35215": "35033",
    "35216": "35027",
    "35217": "35032",
    "35218": "35005",
    "35219": "35025",
    "35220": "35026",
    "35229": "35020",
    "35240": "35011",
    "35250": "35002",
    "35260": "35002",
    "35270": "35009",
    "35280": "35013",
    "35290": "35008",
    "35300": "35021",
    "35310": "35001",
    "35320": "35033",
    "35330": "35027",
    "35340": "35031",
    "35350": "35032",
    "35360": "35005",
    "35369": "35025",
    "35400": "35006",
    "35409": "35013",
    "35410": "35023",
    "35411": "35009",
    "35412": "35001",
    "35430": "35009",
    "35431": "35023",
    "35450": "35023",
    "35458": "35009",
    "35459": "35001",
    "35460": "35009",
    "35468": "35020",
    "35469": "35020",
    "35470": "35020",
    "35478": "35012",
    "35479": "35025",
    "35480": "35001",
    "35488": "35012",
    "35489": "35019",
    "35500": "35006",
    "35509": "35006",
    "35510": "35003",
    "35520": "35003",
    "35530": "35007",
    "35540": "35014",
    "35550": "35014",
    "35560": "35014",
    "35570": "35015",
    "35600": "35017",
    "35610": "35003",
    "35620": "35030",
    "35625": "35030",
    "35627": "35030",
    "35628": "35030",
    "35629": "35015",
    "35630": "35015",
    "35637": "35015",
    "35638": "35015",
    "35640": "35015",
    "35650": "35015"
  }
}
